{"type":"FeatureCollection","features":[{"type":"Feature","properties":{"Name":"Seattle","Population":"724305 "},"geometry":{"type":"Point","coordinates":[-122.34374999999999,47.66538735632654]}},{"type":"Feature","properties":{"Name":"San Francisco","Population":874961},"geometry":{"type":"Point","coordinates":[-122.431640625,37.82280243352756]}},{"type":"Feature","properties":{"Name":"Los Angeles","Population":3967000},"geometry":{"type":"Point","coordinates":[-118.21289062499999,34.05265942137599]}},{"type":"Feature","properties":{"Name":"Austin","Population":950807},"geometry":{"type":"Point","coordinates":[-97.734375,30.29701788337205]}},{"type":"Feature","properties":{"Name":"Chicago","Population":2710000},"geometry":{"type":"Point","coordinates":[-87.62695312499999,41.902277040963696]}},{"type":"Feature","properties":{"Name":"New York","Population":8419000},"geometry":{"type":"Point","coordinates":[-73.98193359375,40.730608477796636]}}]}